{
    "destinations": [
      {
        "id": 1,
        "name": "Mumbai",
        "state": "Maharashtra",
        "latitude": 19.0760,
        "longitude": 72.8777
      },
      {
        "id": 2,
        "name": "Delhi",
        "state": "Delhi",
        "latitude": 28.7041,
        "longitude": 77.1025
      },
      {
        "id": 3,
        "name": "Bengaluru",
        "state": "Karnataka",
        "latitude": 12.9716,
        "longitude": 77.5946
      },
      {
        "id": 4,
        "name": "Hyderabad",
        "state": "Telangana",
        "latitude": 17.3850,
        "longitude": 78.4867
      },
      {
        "id": 5,
        "name": "Ahmedabad",
        "state": "Gujarat",
        "latitude": 23.0225,
        "longitude": 72.5714
      },
      {
        "id": 6,
        "name": "Chennai",
        "state": "Tamil Nadu",
        "latitude": 13.0827,
        "longitude": 80.2707
      },
      {
        "id": 7,
        "name": "Kolkata",
        "state": "West Bengal",
        "latitude": 22.5726,
        "longitude": 88.3639
      },
      {
        "id": 8,
        "name": "Pune",
        "state": "Maharashtra",
        "latitude": 18.5204,
        "longitude": 73.8567
      },
      {
        "id": 9,
        "name": "Jaipur",
        "state": "Rajasthan",
        "latitude": 26.9124,
        "longitude": 75.7873
      },
      {
        "id": 10,
        "name": "Lucknow",
        "state": "Uttar Pradesh",
        "latitude": 26.8467,
        "longitude": 80.9462
      },
      {
        "id": 11,
        "name": "Surat",
        "state": "Gujarat",
        "latitude": 21.1702,
        "longitude": 72.8311
      },
      {
        "id": 12,
        "name": "Kanpur",
        "state": "Uttar Pradesh",
        "latitude": 26.4499,
        "longitude": 80.3319
      },
      {
        "id": 13,
        "name": "Nagpur",
        "state": "Maharashtra",
        "latitude": 21.1458,
        "longitude": 79.0882
      },
      {
        "id": 14,
        "name": "Visakhapatnam",
        "state": "Andhra Pradesh",
        "latitude": 17.6868,
        "longitude": 83.2185
      },
      {
        "id": 15,
        "name": "Bhopal",
        "state": "Madhya Pradesh",
        "latitude": 23.2599,
        "longitude": 77.4126
      },
      {
        "id": 16,
        "name": "Patna",
        "state": "Bihar",
        "latitude": 25.5941,
        "longitude": 85.1376
      },
      {
        "id": 17,
        "name": "Vadodara",
        "state": "Gujarat",
        "latitude": 22.3072,
        "longitude": 73.1812
      },
      {
        "id": 18,
        "name": "Ghaziabad",
        "state": "Uttar Pradesh",
        "latitude": 28.6692,
        "longitude": 77.4538
      },
      {
        "id": 19,
        "name": "Ludhiana",
        "state": "Punjab",
        "latitude": 30.9002,
        "longitude": 75.8573
      },
      {
        "id": 20,
        "name": "Agra",
        "state": "Uttar Pradesh",
        "latitude": 27.1767,
        "longitude": 78.0081
      }
    ]
  }
  